{
  "type": "FeatureCollection",
  "features": [
    {
      "type": "Feature",
      "geometry": {
        "type": "Point",
        "coordinates": [
          -1.1958525550889592,
          50.590772347227194
        ]
      },
      "properties": {
        "name": "The Old Bögenauer",
        "type": "Taverns and Inns",
        "inkscape_coordinates": [
          360.21118401,
          457.60934945
        ]
      }
    },
    {
      "type": "Feature",
      "geometry": {
        "type": "Point",
        "coordinates": [
          -0.8802785403689591,
          50.330202727067196
        ]
      },
      "properties": {
        "name": "The Festival Rest",
        "type": "Taverns and Inns",
        "inkscape_coordinates": [
          378.23986401,
          472.49563945
        ]
      }
    },
    {
      "type": "Feature",
      "geometry": {
        "type": "Point",
        "coordinates": [
          -0.9657194152489599,
          50.096854277467195
        ]
      },
      "properties": {
        "name": "The Child and Hammer",
        "type": "Taverns and Inns",
        "inkscape_coordinates": [
          373.35864401,
          485.82678945
        ]
      }
    },
    {
      "type": "Feature",
      "geometry": {
        "type": "Point",
        "coordinates": [
          -1.4951875838889594,
          50.454082210907195
        ]
      },
      "properties": {
        "name": "The Wynn's Scale",
        "type": "Taverns and Inns",
        "inkscape_coordinates": [
          343.11023401,
          465.41842945
        ]
      }
    },
    {
      "type": "Feature",
      "geometry": {
        "type": "Point",
        "coordinates": [
          -0.7085226408489598,
          50.80158894786719
        ]
      },
      "properties": {
        "name": "The Nobody Knows",
        "type": "Taverns and Inns",
        "inkscape_coordinates": [
          388.05224401,
          445.56543945
        ]
      }
    },
    {
      "type": "Feature",
      "geometry": {
        "type": "Point",
        "coordinates": [
          -0.625367963408959,
          50.643197877467195
        ]
      },
      "properties": {
        "name": "The War Mask",
        "type": "Taverns and Inns",
        "inkscape_coordinates": [
          392.80285401000003,
          454.61428945
        ]
      }
    },
    {
      "type": "Feature",
      "geometry": {
        "type": "Point",
        "coordinates": [
          -0.4344681141289589,
          51.1597564960272
        ]
      },
      "properties": {
        "name": "The New Unberogen",
        "type": "Taverns and Inns",
        "inkscape_coordinates": [
          403.70892401000003,
          425.10339945
        ]
      }
    },
    {
      "type": "Feature",
      "geometry": {
        "type": "Point",
        "coordinates": [
          -0.19270111572895918,
          51.25270011042719
        ]
      },
      "properties": {
        "name": "The Wagon and Mule",
        "type": "Taverns and Inns",
        "inkscape_coordinates": [
          417.52102401,
          419.79354945
        ]
      }
    },
    {
      "type": "Feature",
      "geometry": {
        "type": "Point",
        "coordinates": [
          -0.06216258516895972,
          51.28412574178719
        ]
      },
      "properties": {
        "name": "The Imperial Cross",
        "type": "Taverns and Inns",
        "inkscape_coordinates": [
          424.97866401,
          417.99820945
        ]
      }
    },
    {
      "type": "Feature",
      "geometry": {
        "type": "Point",
        "coordinates": [
          -0.11128353524895943,
          50.92954528834719
        ]
      },
      "properties": {
        "name": "The Auld Hill",
        "type": "Taverns and Inns",
        "inkscape_coordinates": [
          422.17239401,
          438.25531945
        ]
      }
    },
    {
      "type": "Feature",
      "geometry": {
        "type": "Point",
        "coordinates": [
          0.009482162031040369,
          50.856861678747194
        ]
      },
      "properties": {
        "name": "The Anvil's Sister",
        "type": "Taverns and Inns",
        "inkscape_coordinates": [
          429.07171401,
          442.40771945
        ]
      }
    },
    {
      "type": "Feature",
      "geometry": {
        "type": "Point",
        "coordinates": [
          0.26728159915104016,
          50.661921381147195
        ]
      },
      "properties": {
        "name": "The Old Prince",
        "type": "Taverns and Inns",
        "inkscape_coordinates": [
          443.79974401,
          453.54461945
        ]
      }
    },
    {
      "type": "Feature",
      "geometry": {
        "type": "Point",
        "coordinates": [
          0.29988367435104013,
          50.4175053273872
        ]
      },
      "properties": {
        "name": "The Summer Rose",
        "type": "Taverns and Inns",
        "inkscape_coordinates": [
          445.66229401,
          467.50805945
        ]
      }
    },
    {
      "type": "Feature",
      "geometry": {
        "type": "Point",
        "coordinates": [
          -0.5529651179689594,
          50.9198916573072
        ]
      },
      "properties": {
        "name": "The Pelt and Trunk",
        "type": "Taverns and Inns",
        "inkscape_coordinates": [
          396.93921401,
          438.80682945
        ]
      }
    },
    {
      "type": "Feature",
      "geometry": {
        "type": "Point",
        "coordinates": [
          -0.9984214382889592,
          51.4884019728272
        ]
      },
      "properties": {
        "name": "The Graf Manfred",
        "type": "Taverns and Inns",
        "inkscape_coordinates": [
          371.49038401,
          406.32794945
        ]
      }
    },
    {
      "type": "Feature",
      "geometry": {
        "type": "Point",
        "coordinates": [
          -0.6352540475689592,
          51.76013389378719
        ]
      },
      "properties": {
        "name": "The Drake",
        "type": "Taverns and Inns",
        "inkscape_coordinates": [
          392.23806401,
          390.80395945
        ]
      }
    },
    {
      "type": "Feature",
      "geometry": {
        "type": "Point",
        "coordinates": [
          -0.360654621328959,
          51.659780136027194
        ]
      },
      "properties": {
        "name": "The Sheep Market",
        "type": "Taverns and Inns",
        "inkscape_coordinates": [
          407.92587401000003,
          396.53714945
        ]
      }
    },
    {
      "type": "Feature",
      "geometry": {
        "type": "Point",
        "coordinates": [
          0.0001758103510410201,
          51.854679999387194
        ]
      },
      "properties": {
        "name": "Seven Spokes",
        "type": "Taverns and Inns",
        "inkscape_coordinates": [
          428.54004401000003,
          385.40255945
        ]
      }
    },
    {
      "type": "Feature",
      "geometry": {
        "type": "Point",
        "coordinates": [
          0.04303242891104033,
          51.70106962146719
        ]
      },
      "properties": {
        "name": "The Auld Granger",
        "type": "Taverns and Inns",
        "inkscape_coordinates": [
          430.98843401,
          394.17828945
        ]
      }
    },
    {
      "type": "Feature",
      "geometry": {
        "type": "Point",
        "coordinates": [
          0.1474516657110409,
          51.699760847387196
        ]
      },
      "properties": {
        "name": "The Mortician's Basket",
        "type": "Taverns and Inns",
        "inkscape_coordinates": [
          436.95388401,
          394.25305945
        ]
      }
    },
    {
      "type": "Feature",
      "geometry": {
        "type": "Point",
        "coordinates": [
          -0.22807179860895987,
          51.76336618242719
        ]
      },
      "properties": {
        "name": "The Countless Arms",
        "type": "Taverns and Inns",
        "inkscape_coordinates": [
          415.50030401,
          390.61929945
        ]
      }
    },
    {
      "type": "Feature",
      "geometry": {
        "type": "Point",
        "coordinates": [
          0.18577317291104095,
          51.17536148706719
        ]
      },
      "properties": {
        "name": "The Skull and Crown",
        "type": "Taverns and Inns",
        "inkscape_coordinates": [
          439.14318401,
          424.21188945
        ]
      }
    },
    {
      "type": "Feature",
      "geometry": {
        "type": "Point",
        "coordinates": [
          -0.009043721488959624,
          52.05195463042719
        ]
      },
      "properties": {
        "name": "The Matthais",
        "type": "Taverns and Inns",
        "inkscape_coordinates": [
          428.01333401,
          374.13229945
        ]
      }
    },
    {
      "type": "Feature",
      "geometry": {
        "type": "Point",
        "coordinates": [
          0.20267153451104072,
          52.16439997634719
        ]
      },
      "properties": {
        "name": "The Four Horns",
        "type": "Taverns and Inns",
        "inkscape_coordinates": [
          440.10858401,
          367.70831945
        ]
      }
    },
    {
      "type": "Feature",
      "geometry": {
        "type": "Point",
        "coordinates": [
          0.12741728747104067,
          52.4006474384272
        ]
      },
      "properties": {
        "name": "The Coach and Horses",
        "type": "Taverns and Inns",
        "inkscape_coordinates": [
          435.80932401,
          354.21154945
        ]
      }
    },
    {
      "type": "Feature",
      "geometry": {
        "type": "Point",
        "coordinates": [
          -0.0007051659689595198,
          52.396594037147196
        ]
      },
      "properties": {
        "name": "The Five Brothers Lodge",
        "type": "Taverns and Inns",
        "inkscape_coordinates": [
          428.48971401,
          354.44311945
        ]
      }
    },
    {
      "type": "Feature",
      "geometry": {
        "type": "Point",
        "coordinates": [
          -0.8559380030889597,
          52.104875873947194
        ]
      },
      "properties": {
        "name": "The Swamp Palace",
        "type": "Taverns and Inns",
        "inkscape_coordinates": [
          379.63043401,
          371.10891945
        ]
      }
    },
    {
      "type": "Feature",
      "geometry": {
        "type": "Point",
        "coordinates": [
          -0.8362475784489597,
          51.8885224080272
        ]
      },
      "properties": {
        "name": "The Long Tooth",
        "type": "Taverns and Inns",
        "inkscape_coordinates": [
          380.75534401,
          383.46914945
        ]
      }
    },
    {
      "type": "Feature",
      "geometry": {
        "type": "Point",
        "coordinates": [
          0.4470581815510402,
          52.782781288347195
        ]
      },
      "properties": {
        "name": "The Yellow Eye Tavern",
        "type": "Taverns and Inns",
        "inkscape_coordinates": [
          454.07034401,
          332.38031945
        ]
      }
    },
    {
      "type": "Feature",
      "geometry": {
        "type": "Point",
        "coordinates": [
          0.34584550251104007,
          51.7680429011472
        ]
      },
      "properties": {
        "name": "The Horned Father",
        "type": "Taverns and Inns",
        "inkscape_coordinates": [
          448.28808401,
          390.35211945
        ]
      }
    },
    {
      "type": "Feature",
      "geometry": {
        "type": "Point",
        "coordinates": [
          0.7882557767510401,
          51.8831724854672
        ]
      },
      "properties": {
        "name": "The Bell Inn",
        "type": "Taverns and Inns",
        "inkscape_coordinates": [
          473.56289401,
          383.77478945
        ]
      }
    },
    {
      "type": "Feature",
      "geometry": {
        "type": "Point",
        "coordinates": [
          0.31138030155104074,
          51.9434083005072
        ]
      },
      "properties": {
        "name": "The Delb Down",
        "type": "Taverns and Inns",
        "inkscape_coordinates": [
          446.31909401,
          380.33352945
        ]
      }
    },
    {
      "type": "Feature",
      "geometry": {
        "type": "Point",
        "coordinates": [
          0.37894014027104017,
          52.49272758050719
        ]
      },
      "properties": {
        "name": "The Third Brother",
        "type": "Taverns and Inns",
        "inkscape_coordinates": [
          450.17877401,
          348.95102945
        ]
      }
    },
    {
      "type": "Feature",
      "geometry": {
        "type": "Point",
        "coordinates": [
          0.340626159791041,
          50.551295926107194
        ]
      },
      "properties": {
        "name": "The Four-Eyed Skull",
        "type": "Taverns and Inns",
        "inkscape_coordinates": [
          447.98990401000003,
          459.86462945
        ]
      }
    },
    {
      "type": "Feature",
      "geometry": {
        "type": "Point",
        "coordinates": [
          0.3409230276310407,
          50.28481713058719
        ]
      },
      "properties": {
        "name": "The Brass Monkey",
        "type": "Taverns and Inns",
        "inkscape_coordinates": [
          448.00686401,
          475.08850945
        ]
      }
    },
    {
      "type": "Feature",
      "geometry": {
        "type": "Point",
        "coordinates": [
          0.41804792715104006,
          50.198417911707196
        ]
      },
      "properties": {
        "name": "The Hog and Doe",
        "type": "Taverns and Inns",
        "inkscape_coordinates": [
          452.41299401,
          480.02447945
        ]
      }
    },
    {
      "type": "Feature",
      "geometry": {
        "type": "Point",
        "coordinates": [
          0.6302578461910402,
          49.6045467507472
        ]
      },
      "properties": {
        "name": "The Burning Heretic",
        "type": "Taverns and Inns",
        "inkscape_coordinates": [
          464.53650401,
          513.95221945
        ]
      }
    },
    {
      "type": "Feature",
      "geometry": {
        "type": "Point",
        "coordinates": [
          0.44224143083104056,
          49.70547849058719
        ]
      },
      "properties": {
        "name": "The Wheelhouse",
        "type": "Taverns and Inns",
        "inkscape_coordinates": [
          453.79516401,
          508.18600945000003
        ]
      }
    },
    {
      "type": "Feature",
      "geometry": {
        "type": "Point",
        "coordinates": [
          0.5744375901910408,
          49.45482156066719
        ]
      },
      "properties": {
        "name": "The Dangling Thread",
        "type": "Taverns and Inns",
        "inkscape_coordinates": [
          461.34750401,
          522.50598945
        ]
      }
    },
    {
      "type": "Feature",
      "geometry": {
        "type": "Point",
        "coordinates": [
          1.0031007479510408,
          49.802065037467194
        ]
      },
      "properties": {
        "name": "The Mantle and Stoker",
        "type": "Taverns and Inns",
        "inkscape_coordinates": [
          485.83694401,
          502.66803945
        ]
      }
    },
    {
      "type": "Feature",
      "geometry": {
        "type": "Point",
        "coordinates": [
          1.3965374557910402,
          50.3945034960272
        ]
      },
      "properties": {
        "name": "The Third Comet",
        "type": "Taverns and Inns",
        "inkscape_coordinates": [
          508.31390401,
          468.82214945
        ]
      }
    },
    {
      "type": "Feature",
      "geometry": {
        "type": "Point",
        "coordinates": [
          1.2181844737110408,
          50.48794282370719
        ]
      },
      "properties": {
        "name": "The Bear and Cock Pit",
        "type": "Taverns and Inns",
        "inkscape_coordinates": [
          498.12463401,
          463.48397945
        ]
      }
    },
    {
      "type": "Feature",
      "geometry": {
        "type": "Point",
        "coordinates": [
          0.65923431787104,
          50.413591257947196
        ]
      },
      "properties": {
        "name": "The Tupping Ram",
        "type": "Taverns and Inns",
        "inkscape_coordinates": [
          466.19192401,
          467.73166945
        ]
      }
    },
    {
      "type": "Feature",
      "geometry": {
        "type": "Point",
        "coordinates": [
          1.3235914612310409,
          49.785756560667195
        ]
      },
      "properties": {
        "name": "The Boar and Child",
        "type": "Taverns and Inns",
        "inkscape_coordinates": [
          504.14651401000003,
          503.59973945
        ]
      }
    },
    {
      "type": "Feature",
      "geometry": {
        "type": "Point",
        "coordinates": [
          -2.14341636660896,
          50.42426484706719
        ]
      },
      "properties": {
        "name": "The Three Doves",
        "type": "Taverns and Inns",
        "inkscape_coordinates": [
          306.07705401,
          467.12188945
        ]
      }
    },
    {
      "type": "Feature",
      "geometry": {
        "type": "Point",
        "coordinates": [
          -0.7709910910889596,
          49.765665119387194
        ]
      },
      "properties": {
        "name": "The Luitpold Inn",
        "type": "Taverns and Inns",
        "inkscape_coordinates": [
          384.48343401,
          504.74755945
        ]
      }
    },
    {
      "type": "Feature",
      "geometry": {
        "type": "Point",
        "coordinates": [
          0.1784796061910402,
          49.6277141699472
        ]
      },
      "properties": {
        "name": "Rainwood Inn",
        "type": "Taverns and Inns",
        "inkscape_coordinates": [
          438.72650401,
          512.62866945
        ]
      }
    },
    {
      "type": "Feature",
      "geometry": {
        "type": "Point",
        "coordinates": [
          0.32420810795104044,
          49.267486926107196
        ]
      },
      "properties": {
        "name": "The Crowned Kestrel",
        "type": "Taverns and Inns",
        "inkscape_coordinates": [
          447.05194401,
          533.20837945
        ]
      }
    },
    {
      "type": "Feature",
      "geometry": {
        "type": "Point",
        "coordinates": [
          -1.817543698448959,
          50.5762485782672
        ]
      },
      "properties": {
        "name": "The Ram's Horn",
        "type": "Taverns and Inns",
        "inkscape_coordinates": [
          324.69409401,
          458.43908945
        ]
      }
    },
    {
      "type": "Feature",
      "geometry": {
        "type": "Point",
        "coordinates": [
          0.17602291979104098,
          55.34592456578719
        ]
      },
      "properties": {
        "name": "The Hobbled Orc",
        "type": "Taverns and Inns",
        "inkscape_coordinates": [
          438.58615401000003,
          185.94845945
        ]
      }
    },
    {
      "type": "Feature",
      "geometry": {
        "type": "Point",
        "coordinates": [
          1.1495368051510397,
          56.601158327796796
        ]
      },
      "properties": {
        "name": "Broken Wheel Inn",
        "type": "Taverns and Inns",
        "inkscape_coordinates": [
          494.20280650999996,
          114.23720705000001
        ]
      }
    },
    {
      "type": "Feature",
      "geometry": {
        "type": "Point",
        "coordinates": [
          -0.016763685648959394,
          52.117436569307195
        ]
      },
      "properties": {
        "name": "The Wolf's Head",
        "type": "Taverns and Inns",
        "inkscape_coordinates": [
          427.57229401,
          370.39132945
        ]
      }
    },
    {
      "type": "Feature",
      "geometry": {
        "type": "Point",
        "coordinates": [
          -0.2280066837289591,
          48.76369992610719
        ]
      },
      "properties": {
        "name": "The Lusty Soldier",
        "type": "Taverns and Inns",
        "inkscape_coordinates": [
          415.50402401,
          561.98962945
        ]
      }
    },
    {
      "type": "Feature",
      "geometry": {
        "type": "Point",
        "coordinates": [
          1.3467732337110407,
          48.4995908221072
        ]
      },
      "properties": {
        "name": "The Stork's Nest",
        "type": "Taverns and Inns",
        "inkscape_coordinates": [
          505.47088401,
          577.07812945
        ]
      }
    },
    {
      "type": "Feature",
      "geometry": {
        "type": "Point",
        "coordinates": [
          1.1307735236310401,
          48.484987409947195
        ]
      },
      "properties": {
        "name": "The Lady in Green",
        "type": "Taverns and Inns",
        "inkscape_coordinates": [
          493.13086401,
          577.91241945
        ]
      }
    },
    {
      "type": "Feature",
      "geometry": {
        "type": "Point",
        "coordinates": [
          0.721962002351041,
          48.3859504781072
        ]
      },
      "properties": {
        "name": "Naila's Crossing",
        "type": "Taverns and Inns",
        "inkscape_coordinates": [
          469.77554401000003,
          583.57037945
        ]
      }
    },
    {
      "type": "Feature",
      "geometry": {
        "type": "Point",
        "coordinates": [
          0.9239000490710408,
          48.40832304066719
        ]
      },
      "properties": {
        "name": "The Raging Bull",
        "type": "Taverns and Inns",
        "inkscape_coordinates": [
          481.31222401,
          582.29223945
        ]
      }
    },
    {
      "type": "Feature",
      "geometry": {
        "type": "Point",
        "coordinates": [
          1.021860659951041,
          47.8990499369872
        ]
      },
      "properties": {
        "name": "The Croaking Frog",
        "type": "Taverns and Inns",
        "inkscape_coordinates": [
          486.90869401000003,
          611.38690945
        ]
      }
    },
    {
      "type": "Feature",
      "geometry": {
        "type": "Point",
        "coordinates": [
          1.31391647531104,
          48.175288087707195
        ]
      },
      "properties": {
        "name": "The Forest Sprite",
        "type": "Taverns and Inns",
        "inkscape_coordinates": [
          503.59378401,
          595.60547945
        ]
      }
    },
    {
      "type": "Feature",
      "geometry": {
        "type": "Point",
        "coordinates": [
          1.6224013700310396,
          48.05238095106719
        ]
      },
      "properties": {
        "name": "The Broken Wheel",
        "type": "Taverns and Inns",
        "inkscape_coordinates": [
          521.21746401,
          602.62713945
        ]
      }
    },
    {
      "type": "Feature",
      "geometry": {
        "type": "Point",
        "coordinates": [
          1.7535221576729607,
          46.59027175755039
        ]
      },
      "properties": {
        "name": "The Stork and Fox",
        "type": "Taverns and Inns",
        "inkscape_coordinates": [
          528.70836824,
          686.1571436500001
        ]
      }
    },
    {
      "type": "Feature",
      "geometry": {
        "type": "Point",
        "coordinates": [
          1.7175356100310406,
          46.504083535387196
        ]
      },
      "properties": {
        "name": "The Cock and Fox",
        "type": "Taverns and Inns",
        "inkscape_coordinates": [
          526.65246401,
          691.08105945
        ]
      }
    },
    {
      "type": "Feature",
      "geometry": {
        "type": "Point",
        "coordinates": [
          2.0939496778710405,
          46.6279982022672
        ]
      },
      "properties": {
        "name": "The Two-Mast Barge",
        "type": "Taverns and Inns",
        "inkscape_coordinates": [
          548.15692401,
          684.00183945
        ]
      }
    },
    {
      "type": "Feature",
      "geometry": {
        "type": "Point",
        "coordinates": [
          2.38478914027104,
          46.5379483491472
        ]
      },
      "properties": {
        "name": "The Woodsman's Axe",
        "type": "Taverns and Inns",
        "inkscape_coordinates": [
          564.77252401,
          689.14636945
        ]
      }
    },
    {
      "type": "Feature",
      "geometry": {
        "type": "Point",
        "coordinates": [
          1.7179276996310398,
          46.0402350621072
        ]
      },
      "properties": {
        "name": "The Lonely Road",
        "type": "Taverns and Inns",
        "inkscape_coordinates": [
          526.67486401,
          717.58062945
        ]
      }
    },
    {
      "type": "Feature",
      "geometry": {
        "type": "Point",
        "coordinates": [
          1.9266263162710398,
          46.0286741952272
        ]
      },
      "properties": {
        "name": "The Drunken Shepherd",
        "type": "Taverns and Inns",
        "inkscape_coordinates": [
          538.59777401,
          718.24109945
        ]
      }
    },
    {
      "type": "Feature",
      "geometry": {
        "type": "Point",
        "coordinates": [
          1.8499608967510406,
          45.841880259227196
        ]
      },
      "properties": {
        "name": "The Broken Rudder",
        "type": "Taverns and Inns",
        "inkscape_coordinates": [
          534.21789401,
          728.91259945
        ]
      }
    },
    {
      "type": "Feature",
      "geometry": {
        "type": "Point",
        "coordinates": [
          1.9771278068310414,
          45.507233711067194
        ]
      },
      "properties": {
        "name": "The Two Rivers",
        "type": "Taverns and Inns",
        "inkscape_coordinates": [
          541.4829140100001,
          748.03088945
        ]
      }
    },
    {
      "type": "Feature",
      "geometry": {
        "type": "Point",
        "coordinates": [
          2.018294764271041,
          45.2344504998672
        ]
      },
      "properties": {
        "name": "The Nymph and the Fisherman",
        "type": "Taverns and Inns",
        "inkscape_coordinates": [
          543.83477401,
          763.61493945
        ]
      }
    },
    {
      "type": "Feature",
      "geometry": {
        "type": "Point",
        "coordinates": [
          1.8590880074710407,
          44.85010729506719
        ]
      },
      "properties": {
        "name": "The Watery Rest",
        "type": "Taverns and Inns",
        "inkscape_coordinates": [
          534.73932401,
          785.57238945
        ]
      }
    },
    {
      "type": "Feature",
      "geometry": {
        "type": "Point",
        "coordinates": [
          1.8931611188310409,
          45.023515922267194
        ]
      },
      "properties": {
        "name": "White Hart Inn",
        "type": "Taverns and Inns",
        "inkscape_coordinates": [
          536.68591401,
          775.66558945
        ]
      }
    },
    {
      "type": "Feature",
      "geometry": {
        "type": "Point",
        "coordinates": [
          2.4097353159510395,
          46.3487217072272
        ]
      },
      "properties": {
        "name": "The Four Horses",
        "type": "Taverns and Inns",
        "inkscape_coordinates": [
          566.19769401,
          699.95684945
        ]
      }
    },
    {
      "type": "Feature",
      "geometry": {
        "type": "Point",
        "coordinates": [
          2.1444509933910405,
          46.2957833097872
        ]
      },
      "properties": {
        "name": "The Wainwright",
        "type": "Taverns and Inns",
        "inkscape_coordinates": [
          551.04205401,
          702.98120945
        ]
      }
    },
    {
      "type": "Feature",
      "geometry": {
        "type": "Point",
        "coordinates": [
          2.5953125489110396,
          46.26232126306719
        ]
      },
      "properties": {
        "name": "The Badger and Wolf",
        "type": "Taverns and Inns",
        "inkscape_coordinates": [
          576.79968401,
          704.89288945
        ]
      }
    },
    {
      "type": "Feature",
      "geometry": {
        "type": "Point",
        "coordinates": [
          2.5709742871510395,
          45.93436596898719
        ]
      },
      "properties": {
        "name": "The Tired Coachman",
        "type": "Taverns and Inns",
        "inkscape_coordinates": [
          575.40924401,
          723.62890945
        ]
      }
    },
    {
      "type": "Feature",
      "geometry": {
        "type": "Point",
        "coordinates": [
          2.86911589323104,
          45.5948487577872
        ]
      },
      "properties": {
        "name": "The Red Stork",
        "type": "Taverns and Inns",
        "inkscape_coordinates": [
          592.44201401,
          743.02545945
        ]
      }
    },
    {
      "type": "Feature",
      "geometry": {
        "type": "Point",
        "coordinates": [
          2.9561242513110404,
          45.7682594854672
        ]
      },
      "properties": {
        "name": "The Maid and Unicorn",
        "type": "Taverns and Inns",
        "inkscape_coordinates": [
          597.41278401,
          733.11853945
        ]
      }
    },
    {
      "type": "Feature",
      "geometry": {
        "type": "Point",
        "coordinates": [
          3.2506131226710395,
          45.5060168329872
        ]
      },
      "properties": {
        "name": "The Marsh Hare",
        "type": "Taverns and Inns",
        "inkscape_coordinates": [
          614.23687401,
          748.10040945
        ]
      }
    },
    {
      "type": "Feature",
      "geometry": {
        "type": "Point",
        "coordinates": [
          3.9460724234710414,
          45.220044882907196
        ]
      },
      "properties": {
        "name": "The Prancing Doe",
        "type": "Taverns and Inns",
        "inkscape_coordinates": [
          653.9683240100001,
          764.43792945
        ]
      }
    },
    {
      "type": "Feature",
      "geometry": {
        "type": "Point",
        "coordinates": [
          3.257306477231041,
          45.11782414850719
        ]
      },
      "properties": {
        "name": "The Hen and Wolf",
        "type": "Taverns and Inns",
        "inkscape_coordinates": [
          614.61926401,
          770.27777945
        ]
      }
    },
    {
      "type": "Feature",
      "geometry": {
        "type": "Point",
        "coordinates": [
          3.567007899951041,
          45.3204385497872
        ]
      },
      "properties": {
        "name": "The Sword and Plough",
        "type": "Taverns and Inns",
        "inkscape_coordinates": [
          632.31244401,
          758.70245945
        ]
      }
    },
    {
      "type": "Feature",
      "geometry": {
        "type": "Point",
        "coordinates": [
          2.5180402657110403,
          47.8680195459472
        ]
      },
      "properties": {
        "name": "The Boar's Head",
        "type": "Taverns and Inns",
        "inkscape_coordinates": [
          572.38513401,
          613.15966945
        ]
      }
    },
    {
      "type": "Feature",
      "geometry": {
        "type": "Point",
        "coordinates": [
          3.21298337355104,
          48.06581019490719
        ]
      },
      "properties": {
        "name": "The Red Arrow",
        "type": "Taverns and Inns",
        "inkscape_coordinates": [
          612.08709401,
          601.85992945
        ]
      }
    },
    {
      "type": "Feature",
      "geometry": {
        "type": "Point",
        "coordinates": [
          2.63851277099104,
          47.90817809794719
        ]
      },
      "properties": {
        "name": "Toad in the Hole",
        "type": "Taverns and Inns",
        "inkscape_coordinates": [
          579.26770401,
          610.86541945
        ]
      }
    },
    {
      "type": "Feature",
      "geometry": {
        "type": "Point",
        "coordinates": [
          1.6830970151510398,
          47.998073040667194
        ]
      },
      "properties": {
        "name": "The Magpie and Crown",
        "type": "Taverns and Inns",
        "inkscape_coordinates": [
          524.68499401,
          605.72973945
        ]
      }
    },
    {
      "type": "Feature",
      "geometry": {
        "type": "Point",
        "coordinates": [
          1.96621441291104,
          48.295601481627195
        ]
      },
      "properties": {
        "name": "The Three Staves",
        "type": "Taverns and Inns",
        "inkscape_coordinates": [
          540.85943401,
          588.73199945
        ]
      }
    },
    {
      "type": "Feature",
      "geometry": {
        "type": "Point",
        "coordinates": [
          1.9576568823510403,
          43.9994934134672
        ]
      },
      "properties": {
        "name": "The Red Sunrise",
        "type": "Taverns and Inns",
        "inkscape_coordinates": [
          540.37054401,
          834.16778945
        ]
      }
    },
    {
      "type": "Feature",
      "geometry": {
        "type": "Point",
        "coordinates": [
          2.2801358749910414,
          43.2474485817872
        ]
      },
      "properties": {
        "name": "The Third Pfennig",
        "type": "Taverns and Inns",
        "inkscape_coordinates": [
          558.79370401,
          877.13195945
        ]
      }
    },
    {
      "type": "Feature",
      "geometry": {
        "type": "Point",
        "coordinates": [
          2.8435607533910394,
          43.510299148187194
        ]
      },
      "properties": {
        "name": "The Auld House",
        "type": "Taverns and Inns",
        "inkscape_coordinates": [
          590.98205401,
          862.11535945
        ]
      }
    },
    {
      "type": "Feature",
      "geometry": {
        "type": "Point",
        "coordinates": [
          4.56547404363104,
          45.88812197634719
        ]
      },
      "properties": {
        "name": "The Pilgrim's Rest",
        "type": "Taverns and Inns",
        "inkscape_coordinates": [
          689.35461401,
          726.27081945
        ]
      }
    },
    {
      "type": "Feature",
      "geometry": {
        "type": "Point",
        "coordinates": [
          4.40849467083104,
          45.3453847254672
        ]
      },
      "properties": {
        "name": "The Hen's Roost",
        "type": "Taverns and Inns",
        "inkscape_coordinates": [
          680.38641401,
          757.27728945
        ]
      }
    },
    {
      "type": "Feature",
      "geometry": {
        "type": "Point",
        "coordinates": [
          0.3586498535510403,
          52.980219581787196
        ]
      },
      "properties": {
        "name": "The Bröckel Arms",
        "type": "Taverns and Inns",
        "inkscape_coordinates": [
          449.01959401,
          321.10070945
        ]
      }
    },
    {
      "type": "Feature",
      "geometry": {
        "type": "Point",
        "coordinates": [
          2.37383741259104,
          48.863444019547195
        ]
      },
      "properties": {
        "name": "The Quiet Place",
        "type": "Taverns and Inns",
        "inkscape_coordinates": [
          564.14685401,
          556.29126945
        ]
      }
    },
    {
      "type": "Feature",
      "geometry": {
        "type": "Point",
        "coordinates": [
          3.0845068141910406,
          49.5376077789072
        ]
      },
      "properties": {
        "name": "The Count's Own",
        "type": "Taverns and Inns",
        "inkscape_coordinates": [
          604.74725401,
          517.77642945
        ]
      }
    },
    {
      "type": "Feature",
      "geometry": {
        "type": "Point",
        "coordinates": [
          3.66496781067104,
          49.771253096347195
        ]
      },
      "properties": {
        "name": "Brownhill Inn",
        "type": "Taverns and Inns",
        "inkscape_coordinates": [
          637.90887401,
          504.42831945
        ]
      }
    },
    {
      "type": "Feature",
      "geometry": {
        "type": "Point",
        "coordinates": [
          3.9193004055510405,
          48.8999510621072
        ]
      },
      "properties": {
        "name": "The Count's Arms",
        "type": "Taverns and Inns",
        "inkscape_coordinates": [
          652.43884401,
          554.20562945
        ]
      }
    },
    {
      "type": "Feature",
      "geometry": {
        "type": "Point",
        "coordinates": [
          3.7927424596310404,
          48.12113403746719
        ]
      },
      "properties": {
        "name": "The Grey Mare",
        "type": "Taverns and Inns",
        "inkscape_coordinates": [
          645.20861401,
          598.69928945
        ]
      }
    },
    {
      "type": "Feature",
      "geometry": {
        "type": "Point",
        "coordinates": [
          4.38902374635104,
          47.8108259261072
        ]
      },
      "properties": {
        "name": "The Wagon's Wheel",
        "type": "Taverns and Inns",
        "inkscape_coordinates": [
          679.27404401,
          616.42712945
        ]
      }
    },
    {
      "type": "Feature",
      "geometry": {
        "type": "Point",
        "coordinates": [
          3.8973958999510407,
          47.2863416713872
        ]
      },
      "properties": {
        "name": "The Friedendorf Feather",
        "type": "Taverns and Inns",
        "inkscape_coordinates": [
          651.18744401,
          646.39080945
        ]
      }
    },
    {
      "type": "Feature",
      "geometry": {
        "type": "Point",
        "coordinates": [
          4.098184283951041,
          46.541597933147195
        ]
      },
      "properties": {
        "name": "The Orc's Head",
        "type": "Taverns and Inns",
        "inkscape_coordinates": [
          662.65844401,
          688.93786945
        ]
      }
    },
    {
      "type": "Feature",
      "geometry": {
        "type": "Point",
        "coordinates": [
          4.482725283951041,
          48.171027614107196
        ]
      },
      "properties": {
        "name": "The Meatpie Inn",
        "type": "Taverns and Inns",
        "inkscape_coordinates": [
          684.62719401,
          595.84887945
        ]
      }
    },
    {
      "type": "Feature",
      "geometry": {
        "type": "Point",
        "coordinates": [
          5.2980481258710395,
          47.14274883266719
        ]
      },
      "properties": {
        "name": "The Green Leaf",
        "type": "Taverns and Inns",
        "inkscape_coordinates": [
          731.20642401,
          654.59423945
        ]
      }
    },
    {
      "type": "Feature",
      "geometry": {
        "type": "Point",
        "coordinates": [
          6.249664638511041,
          48.92063868962719
        ]
      },
      "properties": {
        "name": "The Last Chance",
        "type": "Taverns and Inns",
        "inkscape_coordinates": [
          785.57208401,
          553.02374945
        ]
      }
    },
    {
      "type": "Feature",
      "geometry": {
        "type": "Point",
        "coordinates": [
          1.3673210042710402,
          47.5968901126672
        ]
      },
      "properties": {
        "name": "The Gunner's Aim",
        "type": "Taverns and Inns",
        "inkscape_coordinates": [
          506.64477401,
          628.64923945
        ]
      }
    },
    {
      "type": "Feature",
      "geometry": {
        "type": "Point",
        "coordinates": [
          1.5265097319510406,
          45.4594619693072
        ]
      },
      "properties": {
        "name": "The Longbeard's Pride",
        "type": "Taverns and Inns",
        "inkscape_coordinates": [
          515.73919401,
          750.76007945
        ]
      }
    },
    {
      "type": "Feature",
      "geometry": {
        "type": "Point",
        "coordinates": [
          2.2045665559510406,
          43.62750558210719
        ]
      },
      "properties": {
        "name": "Bugman's Own",
        "type": "Taverns and Inns",
        "inkscape_coordinates": [
          554.47644401,
          855.41937945
        ]
      }
    },
    {
      "type": "Feature",
      "geometry": {
        "type": "Point",
        "coordinates": [
          2.2303812801110405,
          42.6861420374672
        ]
      },
      "properties": {
        "name": "The Golden Grapes",
        "type": "Taverns and Inns",
        "inkscape_coordinates": [
          555.95123401,
          909.19928945
        ]
      }
    },
    {
      "type": "Feature",
      "geometry": {
        "type": "Point",
        "coordinates": [
          3.3980500148310395,
          42.49855744578719
        ]
      },
      "properties": {
        "name": "The Horn's Call",
        "type": "Taverns and Inns",
        "inkscape_coordinates": [
          622.65991401,
          919.91595945
        ]
      }
    },
    {
      "type": "Feature",
      "geometry": {
        "type": "Point",
        "coordinates": [
          4.1793646852310395,
          43.9364163491472
        ]
      },
      "properties": {
        "name": "The Diehl Arms",
        "type": "Taverns and Inns",
        "inkscape_coordinates": [
          667.29626401,
          837.77136945
        ]
      }
    },
    {
      "type": "Feature",
      "geometry": {
        "type": "Point",
        "coordinates": [
          4.23386916555104,
          44.7369358832272
        ]
      },
      "properties": {
        "name": "The Duellist's Blade",
        "type": "Taverns and Inns",
        "inkscape_coordinates": [
          670.41009401,
          792.03784945
        ]
      }
    },
    {
      "type": "Feature",
      "geometry": {
        "type": "Point",
        "coordinates": [
          5.20763716523104,
          45.23487794754719
        ]
      },
      "properties": {
        "name": "The Shepherd's Vale",
        "type": "Taverns and Inns",
        "inkscape_coordinates": [
          726.04126401,
          763.59051945
        ]
      }
    },
    {
      "type": "Feature",
      "geometry": {
        "type": "Point",
        "coordinates": [
          3.6630779037910393,
          45.857004940507196
        ]
      },
      "properties": {
        "name": "The Bretonnian Farmer",
        "type": "Taverns and Inns",
        "inkscape_coordinates": [
          637.80090401,
          728.04852945
        ]
      }
    },
    {
      "type": "Feature",
      "geometry": {
        "type": "Point",
        "coordinates": [
          2.6001800612310406,
          47.40194666434719
        ]
      },
      "properties": {
        "name": "The Mad Count",
        "type": "Taverns and Inns",
        "inkscape_coordinates": [
          577.07776401,
          639.78631945
        ]
      }
    },
    {
      "type": "Feature",
      "geometry": {
        "type": "Point",
        "coordinates": [
          3.0641844951510397,
          48.3696003417872
        ]
      },
      "properties": {
        "name": "Between Two Trees",
        "type": "Taverns and Inns",
        "inkscape_coordinates": [
          603.58624401,
          584.50445945
        ]
      }
    },
    {
      "type": "Feature",
      "geometry": {
        "type": "Point",
        "coordinates": [
          2.3048138893910415,
          45.7579765856272
        ]
      },
      "properties": {
        "name": "The Menogothic Crown",
        "type": "Taverns and Inns",
        "inkscape_coordinates": [
          560.2035540100001,
          733.70599945
        ]
      }
    },
    {
      "type": "Feature",
      "geometry": {
        "type": "Point",
        "coordinates": [
          2.99323903275104,
          47.18290405890719
        ]
      },
      "properties": {
        "name": "Siggurd's Shield",
        "type": "Taverns and Inns",
        "inkscape_coordinates": [
          599.53314401,
          652.30017945
        ]
      }
    },
    {
      "type": "Feature",
      "geometry": {
        "type": "Point",
        "coordinates": [
          2.63494860651104,
          52.9753275638672
        ]
      },
      "properties": {
        "name": "The Queen of the River",
        "type": "Taverns and Inns",
        "inkscape_coordinates": [
          579.06408401,
          321.38018945
        ]
      }
    },
    {
      "type": "Feature",
      "geometry": {
        "type": "Point",
        "coordinates": [
          1.347990111791041,
          52.3401285837072
        ]
      },
      "properties": {
        "name": "The Emperor's Chalice",
        "type": "Taverns and Inns",
        "inkscape_coordinates": [
          505.54040401000003,
          357.66897945
        ]
      }
    },
    {
      "type": "Feature",
      "geometry": {
        "type": "Point",
        "coordinates": [
          2.9265081834710402,
          52.94218426498719
        ]
      },
      "properties": {
        "name": "The Steps",
        "type": "Taverns and Inns",
        "inkscape_coordinates": [
          595.72082401,
          323.27365945
        ]
      }
    },
    {
      "type": "Feature",
      "geometry": {
        "type": "Point",
        "coordinates": [
          3.0151372369110403,
          53.521285900827195
        ]
      },
      "properties": {
        "name": "The Lower Branch",
        "type": "Taverns and Inns",
        "inkscape_coordinates": [
          600.78418401,
          290.18969945
        ]
      }
    },
    {
      "type": "Feature",
      "geometry": {
        "type": "Point",
        "coordinates": [
          2.99276467435104,
          54.6829325593872
        ]
      },
      "properties": {
        "name": "The Spoiled Prince",
        "type": "Taverns and Inns",
        "inkscape_coordinates": [
          599.50604401,
          223.82505945
        ]
      }
    },
    {
      "type": "Feature",
      "geometry": {
        "type": "Point",
        "coordinates": [
          3.805917545391041,
          54.334437196507196
        ]
      },
      "properties": {
        "name": "The Grandfather Tree",
        "type": "Taverns and Inns",
        "inkscape_coordinates": [
          645.96130401,
          243.73452945
        ]
      }
    },
    {
      "type": "Feature",
      "geometry": {
        "type": "Point",
        "coordinates": [
          4.71200055275104,
          52.988649858267195
        ]
      },
      "properties": {
        "name": "The Count of Krieglitz",
        "type": "Taverns and Inns",
        "inkscape_coordinates": [
          697.72564401,
          320.61908945
        ]
      }
    },
    {
      "type": "Feature",
      "geometry": {
        "type": "Point",
        "coordinates": [
          3.22337322283104,
          51.51206930626719
        ]
      },
      "properties": {
        "name": "The Doe and Flowers",
        "type": "Taverns and Inns",
        "inkscape_coordinates": [
          612.68066401,
          404.97583945
        ]
      }
    },
    {
      "type": "Feature",
      "geometry": {
        "type": "Point",
        "coordinates": [
          5.562154079151041,
          50.544031591067196
        ]
      },
      "properties": {
        "name": "The Last Lantern",
        "type": "Taverns and Inns",
        "inkscape_coordinates": [
          746.29474401,
          460.27963945
        ]
      }
    },
    {
      "type": "Feature",
      "geometry": {
        "type": "Point",
        "coordinates": [
          5.54924715467104,
          50.12669894754719
        ]
      },
      "properties": {
        "name": "The Red Deer",
        "type": "Taverns and Inns",
        "inkscape_coordinates": [
          745.55737401,
          484.12176945
        ]
      }
    },
    {
      "type": "Feature",
      "geometry": {
        "type": "Point",
        "coordinates": [
          5.42095526251104,
          48.94741070754719
        ]
      },
      "properties": {
        "name": "The Salty Hill",
        "type": "Taverns and Inns",
        "inkscape_coordinates": [
          738.22808401,
          551.49426945
        ]
      }
    },
    {
      "type": "Feature",
      "geometry": {
        "type": "Point",
        "coordinates": [
          4.54722104747104,
          49.307612395547196
        ]
      },
      "properties": {
        "name": "Ye Auld Styrlande",
        "type": "Taverns and Inns",
        "inkscape_coordinates": [
          688.31182401,
          530.91601945
        ]
      }
    },
    {
      "type": "Feature",
      "geometry": {
        "type": "Point",
        "coordinates": [
          0.12013754891104084,
          52.727101589467196
        ]
      },
      "properties": {
        "name": "The Forest Hearth",
        "type": "Taverns and Inns",
        "inkscape_coordinates": [
          435.39343401,
          335.56128945
        ]
      }
    },
    {
      "type": "Feature",
      "geometry": {
        "type": "Point",
        "coordinates": [
          0.6531394250710407,
          53.75903538114719
        ]
      },
      "properties": {
        "name": "The Half-Way House",
        "type": "Taverns and Inns",
        "inkscape_coordinates": [
          465.84372401,
          276.60711945
        ]
      }
    },
    {
      "type": "Feature",
      "geometry": {
        "type": "Point",
        "coordinates": [
          1.0145593914710407,
          54.8615468761872
        ]
      },
      "properties": {
        "name": "The Bildhofen Arms",
        "type": "Taverns and Inns",
        "inkscape_coordinates": [
          486.49157401,
          213.62085945
        ]
      }
    },
    {
      "type": "Feature",
      "geometry": {
        "type": "Point",
        "coordinates": [
          1.7653864698710402,
          55.08910622786719
        ]
      },
      "properties": {
        "name": "The Robin's Song",
        "type": "Taverns and Inns",
        "inkscape_coordinates": [
          529.38617401,
          200.62043945
        ]
      }
    },
    {
      "type": "Feature",
      "geometry": {
        "type": "Point",
        "coordinates": [
          2.592878792751041,
          54.11802176642719
        ]
      },
      "properties": {
        "name": "The Hunter's Eye",
        "type": "Taverns and Inns",
        "inkscape_coordinates": [
          576.66064401,
          256.09829945
        ]
      }
    },
    {
      "type": "Feature",
      "geometry": {
        "type": "Point",
        "coordinates": [
          2.805835957551041,
          53.30878173954719
        ]
      },
      "properties": {
        "name": "The Hawk and Six Feathers",
        "type": "Taverns and Inns",
        "inkscape_coordinates": [
          588.8268440100001,
          302.33001945
        ]
      }
    },
    {
      "type": "Feature",
      "geometry": {
        "type": "Point",
        "coordinates": [
          5.68502288203104,
          54.0948996825872
        ]
      },
      "properties": {
        "name": "The Prince of Ostland",
        "type": "Taverns and Inns",
        "inkscape_coordinates": [
          753.31421401,
          257.41925945
        ]
      }
    },
    {
      "type": "Feature",
      "geometry": {
        "type": "Point",
        "coordinates": [
          5.0388480186710405,
          54.553670945627196
        ]
      },
      "properties": {
        "name": "The Wandering Bawd",
        "type": "Taverns and Inns",
        "inkscape_coordinates": [
          716.39837401,
          231.20974945
        ]
      }
    },
    {
      "type": "Feature",
      "geometry": {
        "type": "Point",
        "coordinates": [
          4.20405442731104,
          54.236061040667195
        ]
      },
      "properties": {
        "name": "The King's Crossing",
        "type": "Taverns and Inns",
        "inkscape_coordinates": [
          668.70678401,
          249.35473945
        ]
      }
    },
    {
      "type": "Feature",
      "geometry": {
        "type": "Point",
        "coordinates": [
          5.234311860911041,
          55.80241400738719
        ]
      },
      "properties": {
        "name": "The End of Empire",
        "type": "Taverns and Inns",
        "inkscape_coordinates": [
          727.56518401,
          159.86930945
        ]
      }
    },
    {
      "type": "Feature",
      "geometry": {
        "type": "Point",
        "coordinates": [
          4.54592837707104,
          54.503952058907196
        ]
      },
      "properties": {
        "name": "The Silver Acorn",
        "type": "Taverns and Inns",
        "inkscape_coordinates": [
          688.23797401,
          234.05017945
        ]
      }
    },
    {
      "type": "Feature",
      "geometry": {
        "type": "Point",
        "coordinates": [
          -0.1083995762089594,
          53.82675695682719
        ]
      },
      "properties": {
        "name": "The Hooded Man",
        "type": "Taverns and Inns",
        "inkscape_coordinates": [
          422.33715401,
          272.73819945
        ]
      }
    },
    {
      "type": "Feature",
      "geometry": {
        "type": "Point",
        "coordinates": [
          -2.143431245008959,
          53.38791137218719
        ]
      },
      "properties": {
        "name": "The Pelican's Perch",
        "type": "Taverns and Inns",
        "inkscape_coordinates": [
          306.07620401,
          297.80935945
        ]
      }
    },
    {
      "type": "Feature",
      "geometry": {
        "type": "Point",
        "coordinates": [
          -1.5247469387689592,
          53.78975437602719
        ]
      },
      "properties": {
        "name": "The Old Salt Barrel",
        "type": "Taverns and Inns",
        "inkscape_coordinates": [
          341.42151401,
          274.85214945
        ]
      }
    },
    {
      "type": "Feature",
      "geometry": {
        "type": "Point",
        "coordinates": [
          -1.0299722232489599,
          54.433392909787194
        ]
      },
      "properties": {
        "name": "The Goblin's Nightcap",
        "type": "Taverns and Inns",
        "inkscape_coordinates": [
          369.68789401,
          238.08120945
        ]
      }
    },
    {
      "type": "Feature",
      "geometry": {
        "type": "Point",
        "coordinates": [
          -0.676745354128959,
          52.67801634754719
        ]
      },
      "properties": {
        "name": "The Angry Gnome",
        "type": "Taverns and Inns",
        "inkscape_coordinates": [
          389.86767401000003,
          338.36551945
        ]
      }
    },
    {
      "type": "Feature",
      "geometry": {
        "type": "Point",
        "coordinates": [
          -0.4232086661289595,
          55.000882392027194
        ]
      },
      "properties": {
        "name": "The Huntsmen's Bow",
        "type": "Taverns and Inns",
        "inkscape_coordinates": [
          404.35217401,
          205.66064945
        ]
      }
    },
    {
      "type": "Feature",
      "geometry": {
        "type": "Point",
        "coordinates": [
          1.9705167210710408,
          57.25145992719519
        ]
      },
      "properties": {
        "name": "The Old Salt",
        "type": "Taverns and Inns",
        "inkscape_coordinates": [
          541.10522401,
          77.08560745
        ]
      }
    },
    {
      "type": "Feature",
      "geometry": {
        "type": "Point",
        "coordinates": [
          2.7105275527510404,
          57.0148291450192
        ]
      },
      "properties": {
        "name": "The Boar and Spear",
        "type": "Taverns and Inns",
        "inkscape_coordinates": [
          583.38189401,
          90.60427645
        ]
      }
    },
    {
      "type": "Feature",
      "geometry": {
        "type": "Point",
        "coordinates": [
          3.7456834807510395,
          56.84015160034719
        ]
      },
      "properties": {
        "name": "The Hochnar Arms",
        "type": "Taverns and Inns",
        "inkscape_coordinates": [
          642.52014401,
          100.58356945
        ]
      }
    },
    {
      "type": "Feature",
      "geometry": {
        "type": "Point",
        "coordinates": [
          4.641441928751041,
          56.2997717881872
        ]
      },
      "properties": {
        "name": "The Pride of Ostland",
        "type": "Taverns and Inns",
        "inkscape_coordinates": [
          693.69464401,
          131.45535945
        ]
      }
    },
    {
      "type": "Feature",
      "geometry": {
        "type": "Point",
        "coordinates": [
          3.0667666852310393,
          52.10321824514719
        ]
      },
      "properties": {
        "name": "Pilgrim's Pause",
        "type": "Taverns and Inns",
        "inkscape_coordinates": [
          603.73376401,
          371.20361945
        ]
      }
    },
    {
      "type": "Feature",
      "geometry": {
        "type": "Point",
        "coordinates": [
          0.4852076244310408,
          50.0480981107472
        ]
      },
      "properties": {
        "name": "The Woolen Noose",
        "type": "Taverns and Inns",
        "inkscape_coordinates": [
          456.24981401,
          488.61221945
        ]
      }
    },
    {
      "type": "Feature",
      "geometry": {
        "type": "Point",
        "coordinates": [
          -0.3708458002089591,
          49.541572434907195
        ]
      },
      "properties": {
        "name": "The Missing Sheep",
        "type": "Taverns and Inns",
        "inkscape_coordinates": [
          407.34365401,
          517.54992945
        ]
      }
    },
    {
      "type": "Feature",
      "geometry": {
        "type": "Point",
        "coordinates": [
          0.1970700794710403,
          48.986564004827194
        ]
      },
      "properties": {
        "name": "The Smith and the Anvil",
        "type": "Taverns and Inns",
        "inkscape_coordinates": [
          439.78857401,
          549.25744945
        ]
      }
    },
    {
      "type": "Feature",
      "geometry": {
        "type": "Point",
        "coordinates": [
          0.5464247137110408,
          48.63290916290719
        ]
      },
      "properties": {
        "name": "The Dark Knight",
        "type": "Taverns and Inns",
        "inkscape_coordinates": [
          459.74713401,
          569.46167945
        ]
      }
    },
    {
      "type": "Feature",
      "geometry": {
        "type": "Point",
        "coordinates": [
          1.08422338603104,
          48.01164214146719
        ]
      },
      "properties": {
        "name": "The Cannonball",
        "type": "Taverns and Inns",
        "inkscape_coordinates": [
          490.47146401,
          604.95453945
        ]
      }
    },
    {
      "type": "Feature",
      "geometry": {
        "type": "Point",
        "coordinates": [
          1.6142786388310408,
          47.071998714907195
        ]
      },
      "properties": {
        "name": "The Blind Fisherman",
        "type": "Taverns and Inns",
        "inkscape_coordinates": [
          520.75341401,
          658.63617945
        ]
      }
    },
    {
      "type": "Feature",
      "geometry": {
        "type": "Point",
        "coordinates": [
          5.14350233419104,
          47.95685357122719
        ]
      },
      "properties": {
        "name": "The Gentle Hearth",
        "type": "Taverns and Inns",
        "inkscape_coordinates": [
          722.37725401,
          608.08459945
        ]
      }
    },
    {
      "type": "Feature",
      "geometry": {
        "type": "Point",
        "coordinates": [
          4.93176204747104,
          47.43237036674719
        ]
      },
      "properties": {
        "name": "The Good Goat",
        "type": "Taverns and Inns",
        "inkscape_coordinates": [
          710.28057401,
          638.04821945
        ]
      }
    },
    {
      "type": "Feature",
      "geometry": {
        "type": "Point",
        "coordinates": [
          5.361327011311041,
          48.615195815067196
        ]
      },
      "properties": {
        "name": "A Halfling Welcome",
        "type": "Taverns and Inns",
        "inkscape_coordinates": [
          734.82153401,
          570.47363945
        ]
      }
    },
    {
      "type": "Feature",
      "geometry": {
        "type": "Point",
        "coordinates": [
          5.3467246493910405,
          48.2695975392272
        ]
      },
      "properties": {
        "name": "The Candied Apple",
        "type": "Taverns and Inns",
        "inkscape_coordinates": [
          733.98730401,
          590.21759945
        ]
      }
    },
    {
      "type": "Feature",
      "geometry": {
        "type": "Point",
        "coordinates": [
          4.70541852363104,
          47.80960799778719
        ]
      },
      "properties": {
        "name": "The Lucky Dragon",
        "type": "Taverns and Inns",
        "inkscape_coordinates": [
          697.34961401,
          616.49670945
        ]
      }
    },
    {
      "type": "Feature",
      "geometry": {
        "type": "Point",
        "coordinates": [
          4.834410050671041,
          48.57990687586719
        ]
      },
      "properties": {
        "name": "The Prattling Pony",
        "type": "Taverns and Inns",
        "inkscape_coordinates": [
          704.71887401,
          572.48968945
        ]
      }
    },
    {
      "type": "Feature",
      "geometry": {
        "type": "Point",
        "coordinates": [
          4.00691755275104,
          48.31583943138719
        ]
      },
      "properties": {
        "name": "The Feathered Pig",
        "type": "Taverns and Inns",
        "inkscape_coordinates": [
          657.44439401,
          587.57580945
        ]
      }
    },
    {
      "type": "Feature",
      "geometry": {
        "type": "Point",
        "coordinates": [
          5.614442728111039,
          46.333508105627196
        ]
      },
      "properties": {
        "name": "The Broken Blade",
        "type": "Taverns and Inns",
        "inkscape_coordinates": [
          749.28198401,
          700.82599945
        ]
      }
    },
    {
      "type": "Feature",
      "geometry": {
        "type": "Point",
        "coordinates": [
          7.57000081067104,
          47.73659531298719
        ]
      },
      "properties": {
        "name": "The Granite Chair",
        "type": "Taverns and Inns",
        "inkscape_coordinates": [
          861.00262401,
          620.66790945
        ]
      }
    },
    {
      "type": "Feature",
      "geometry": {
        "type": "Point",
        "coordinates": [
          6.814306394991041,
          49.46702552450719
        ]
      },
      "properties": {
        "name": "The Hanged Man",
        "type": "Taverns and Inns",
        "inkscape_coordinates": [
          817.82995401,
          521.80877945
        ]
      }
    },
    {
      "type": "Feature",
      "geometry": {
        "type": "Point",
        "coordinates": [
          7.921685577391039,
          49.67268352130719
        ]
      },
      "properties": {
        "name": "The Forgotten Arms",
        "type": "Taverns and Inns",
        "inkscape_coordinates": [
          881.09430401,
          510.05957945
        ]
      }
    },
    {
      "type": "Feature",
      "geometry": {
        "type": "Point",
        "coordinates": [
          7.576085201071041,
          48.4874211661072
        ]
      },
      "properties": {
        "name": "The Lost Crown",
        "type": "Taverns and Inns",
        "inkscape_coordinates": [
          861.35022401,
          577.77337945
        ]
      }
    },
    {
      "type": "Feature",
      "geometry": {
        "type": "Point",
        "coordinates": [
          7.4872520509910405,
          50.50017549410719
        ]
      },
      "properties": {
        "name": "The Silver Bullet",
        "type": "Taverns and Inns",
        "inkscape_coordinates": [
          856.27520401,
          462.78512945
        ]
      }
    },
    {
      "type": "Feature",
      "geometry": {
        "type": "Point",
        "coordinates": [
          7.781742147631041,
          51.343488107227195
        ]
      },
      "properties": {
        "name": "The Three Barrels Full",
        "type": "Taverns and Inns",
        "inkscape_coordinates": [
          873.09936401,
          414.60684945
        ]
      }
    },
    {
      "type": "Feature",
      "geometry": {
        "type": "Point",
        "coordinates": [
          8.100570506031039,
          52.337694827547196
        ]
      },
      "properties": {
        "name": "The Rusty Halberd",
        "type": "Taverns and Inns",
        "inkscape_coordinates": [
          891.31396401,
          357.80801945
        ]
      }
    },
    {
      "type": "Feature",
      "geometry": {
        "type": "Point",
        "coordinates": [
          7.66978778891104,
          53.05810030402719
        ]
      },
      "properties": {
        "name": "The Hammer and Crown",
        "type": "Taverns and Inns",
        "inkscape_coordinates": [
          866.70343401,
          316.65139945
        ]
      }
    },
    {
      "type": "Feature",
      "geometry": {
        "type": "Point",
        "coordinates": [
          2.2083388429910404,
          47.44332104418719
        ]
      },
      "properties": {
        "name": "The Old Averlander",
        "type": "Taverns and Inns",
        "inkscape_coordinates": [
          554.69195401,
          637.42260945
        ]
      }
    },
    {
      "type": "Feature",
      "geometry": {
        "type": "Point",
        "coordinates": [
          3.6200539469910398,
          46.43094359650719
        ]
      },
      "properties": {
        "name": "The Wild Horses",
        "type": "Taverns and Inns",
        "inkscape_coordinates": [
          635.34295401,
          695.25952945
        ]
      }
    },
    {
      "type": "Feature",
      "geometry": {
        "type": "Point",
        "coordinates": [
          8.802720885871041,
          51.49073263042719
        ]
      },
      "properties": {
        "name": "The Iron Nail",
        "type": "Taverns and Inns",
        "inkscape_coordinates": [
          931.42767401,
          406.19479945
        ]
      }
    },
    {
      "type": "Feature",
      "geometry": {
        "type": "Point",
        "coordinates": [
          9.48905307595104,
          50.916356374427195
        ]
      },
      "properties": {
        "name": "The Slayer's Axe",
        "type": "Taverns and Inns",
        "inkscape_coordinates": [
          970.63769401,
          439.00879945
        ]
      }
    },
    {
      "type": "Feature",
      "geometry": {
        "type": "Point",
        "coordinates": [
          6.82890875691104,
          53.8612543651472
        ]
      },
      "properties": {
        "name": "The Waterwheel",
        "type": "Taverns and Inns",
        "inkscape_coordinates": [
          818.66418401,
          270.76736945
        ]
      }
    },
    {
      "type": "Feature",
      "geometry": {
        "type": "Point",
        "coordinates": [
          5.172708108271041,
          53.7018407110672
        ]
      },
      "properties": {
        "name": "The Blind Falcon",
        "type": "Taverns and Inns",
        "inkscape_coordinates": [
          724.0457740100001,
          279.87463945
        ]
      }
    },
    {
      "type": "Feature",
      "geometry": {
        "type": "Point",
        "coordinates": [
          3.90713179979104,
          53.29296092418719
        ]
      },
      "properties": {
        "name": "The Black Wagon",
        "type": "Taverns and Inns",
        "inkscape_coordinates": [
          651.74365401,
          303.23385945
        ]
      }
    },
    {
      "type": "Feature",
      "geometry": {
        "type": "Point",
        "coordinates": [
          2.3052422122710405,
          51.397623428187195
        ]
      },
      "properties": {
        "name": "The Drowned Rat",
        "type": "Taverns and Inns",
        "inkscape_coordinates": [
          560.22802401,
          411.51410945
        ]
      }
    },
    {
      "type": "Feature",
      "geometry": {
        "type": "Point",
        "coordinates": [
          -2.071500307408959,
          51.7170763293072
        ]
      },
      "properties": {
        "name": "The Old Drum",
        "type": "Taverns and Inns",
        "inkscape_coordinates": [
          310.18560401,
          393.26382945
        ]
      }
    },
    {
      "type": "Feature",
      "geometry": {
        "type": "Point",
        "coordinates": [
          -2.639765391888959,
          52.56128794786719
        ]
      },
      "properties": {
        "name": "The White Gull",
        "type": "Taverns and Inns",
        "inkscape_coordinates": [
          277.72073401,
          345.03418945
        ]
      }
    },
    {
      "type": "Feature",
      "geometry": {
        "type": "Point",
        "coordinates": [
          -2.0788014008489597,
          51.209627492507195
        ]
      },
      "properties": {
        "name": "The Prince's Vintage",
        "type": "Taverns and Inns",
        "inkscape_coordinates": [
          309.76849401,
          422.25427945
        ]
      }
    },
    {
      "type": "Feature",
      "geometry": {
        "type": "Point",
        "coordinates": [
          -4.1996398100086,
          52.489526825613986
        ]
      },
      "properties": {
        "name": "King of the Gap",
        "type": "Taverns and Inns",
        "inkscape_coordinates": [
          188.6054221887225,
          349.133887933387
        ]
      }
    },
    {
      "type": "Feature",
      "geometry": {
        "type": "Point",
        "coordinates": [
          -2.6244387144489596,
          49.8909274192272
        ]
      },
      "properties": {
        "name": "Ludwig's Nose",
        "type": "Taverns and Inns",
        "inkscape_coordinates": [
          278.59634401,
          497.59134945
        ]
      }
    },
    {
      "type": "Feature",
      "geometry": {
        "type": "Point",
        "coordinates": [
          -1.4983398792489595,
          51.506551345307194
        ]
      },
      "properties": {
        "name": "The Drink o' the Reik",
        "type": "Taverns and Inns",
        "inkscape_coordinates": [
          342.93014401,
          405.29107945
        ]
      }
    },
    {
      "type": "Feature",
      "geometry": {
        "type": "Point",
        "coordinates": [
          -2.155466295248959,
          50.708264621467194
        ]
      },
      "properties": {
        "name": "The Muddy Boots",
        "type": "Taverns and Inns",
        "inkscape_coordinates": [
          305.38864401,
          450.89703945
        ]
      }
    },
    {
      "type": "Feature",
      "geometry": {
        "type": "Point",
        "coordinates": [
          0.5705177444310403,
          53.56431073282719
        ]
      },
      "properties": {
        "name": "The Drake's Folly",
        "type": "Taverns and Inns",
        "inkscape_coordinates": [
          461.12356401,
          287.73169945
        ]
      }
    },
    {
      "type": "Feature",
      "geometry": {
        "type": "Point",
        "coordinates": [
          2.22952008331104,
          54.608070401947195
        ]
      },
      "properties": {
        "name": "The Maiden's Repose",
        "type": "Taverns and Inns",
        "inkscape_coordinates": [
          555.90203401,
          228.10191945
        ]
      }
    },
    {
      "type": "Feature",
      "geometry": {
        "type": "Point",
        "coordinates": [
          3.721589749871041,
          54.7844699376272
        ]
      },
      "properties": {
        "name": "The Broken Bridge",
        "type": "Taverns and Inns",
        "inkscape_coordinates": [
          641.14367401,
          218.02424945
        ]
      }
    },
    {
      "type": "Feature",
      "geometry": {
        "type": "Point",
        "coordinates": [
          4.15527112939104,
          53.47568027906719
        ]
      },
      "properties": {
        "name": "The New Elector",
        "type": "Taverns and Inns",
        "inkscape_coordinates": [
          665.91980401,
          292.79513945
        ]
      }
    },
    {
      "type": "Feature",
      "geometry": {
        "type": "Point",
        "coordinates": [
          4.151829842991041,
          53.78287250338719
        ]
      },
      "properties": {
        "name": "The Hammer of the Law",
        "type": "Taverns and Inns",
        "inkscape_coordinates": [
          665.72320401,
          275.24530945
        ]
      }
    },
    {
      "type": "Feature",
      "geometry": {
        "type": "Point",
        "coordinates": [
          7.533509871791041,
          53.37414552642719
        ]
      },
      "properties": {
        "name": "The Low Robin",
        "type": "Taverns and Inns",
        "inkscape_coordinates": [
          858.91790401,
          298.59579945
        ]
      }
    },
    {
      "type": "Feature",
      "geometry": {
        "type": "Point",
        "coordinates": [
          6.614734714031039,
          51.729245460187194
        ]
      },
      "properties": {
        "name": "A Priestley Place",
        "type": "Taverns and Inns",
        "inkscape_coordinates": [
          806.42846401,
          392.56860945
        ]
      }
    },
    {
      "type": "Feature",
      "geometry": {
        "type": "Point",
        "coordinates": [
          6.89994191435104,
          52.9057206323472
        ]
      },
      "properties": {
        "name": "The Lone Graeme",
        "type": "Taverns and Inns",
        "inkscape_coordinates": [
          822.72229401,
          325.35681945
        ]
      }
    },
    {
      "type": "Feature",
      "geometry": {
        "type": "Point",
        "coordinates": [
          3.39719004331104,
          51.0009453296272
        ]
      },
      "properties": {
        "name": "The Sargent-at-Arms",
        "type": "Taverns and Inns",
        "inkscape_coordinates": [
          622.61078401,
          434.17624945
        ]
      }
    },
    {
      "type": "Feature",
      "geometry": {
        "type": "Point",
        "coordinates": [
          2.3677519719510394,
          50.5768403885072
        ]
      },
      "properties": {
        "name": "The Seventh Corner",
        "type": "Taverns and Inns",
        "inkscape_coordinates": [
          563.79919401,
          458.40527945
        ]
      }
    },
    {
      "type": "Feature",
      "geometry": {
        "type": "Point",
        "coordinates": [
          2.41642849547104,
          49.3940126646672
        ]
      },
      "properties": {
        "name": "The Hogshead",
        "type": "Taverns and Inns",
        "inkscape_coordinates": [
          566.58007401,
          525.97998945
        ]
      }
    },
    {
      "type": "Feature",
      "geometry": {
        "type": "Point",
        "coordinates": [
          1.2442727853910402,
          47.84212780418719
        ]
      },
      "properties": {
        "name": "The Green Freelancer",
        "type": "Taverns and Inns",
        "inkscape_coordinates": [
          499.61505401,
          614.63885945
        ]
      }
    },
    {
      "type": "Feature",
      "geometry": {
        "type": "Point",
        "coordinates": [
          0.9232916100310407,
          48.0894978329872
        ]
      },
      "properties": {
        "name": "The Arrow's Flight",
        "type": "Taverns and Inns",
        "inkscape_coordinates": [
          481.27746401,
          600.50665945
        ]
      }
    },
    {
      "type": "Feature",
      "geometry": {
        "type": "Point",
        "coordinates": [
          1.049804570671041,
          49.29719804066719
        ]
      },
      "properties": {
        "name": "The Jack's Last",
        "type": "Taverns and Inns",
        "inkscape_coordinates": [
          488.50512401000003,
          531.51098945
        ]
      }
    },
    {
      "type": "Feature",
      "geometry": {
        "type": "Point",
        "coordinates": [
          3.0680786100310407,
          52.663826029787195
        ]
      },
      "properties": {
        "name": "The Wood's Edge",
        "type": "Taverns and Inns",
        "inkscape_coordinates": [
          603.80871401,
          339.17620945
        ]
      }
    },
    {
      "type": "Feature",
      "geometry": {
        "type": "Point",
        "coordinates": [
          3.3998608036310407,
          52.7366559728272
        ]
      },
      "properties": {
        "name": "The Empty Cup",
        "type": "Taverns and Inns",
        "inkscape_coordinates": [
          622.76336401,
          335.01544945
        ]
      }
    },
    {
      "type": "Feature",
      "geometry": {
        "type": "Point",
        "coordinates": [
          3.44653434443104,
          52.884084288027196
        ]
      },
      "properties": {
        "name": "The Leather Saddle",
        "type": "Taverns and Inns",
        "inkscape_coordinates": [
          625.42981401,
          326.59289945
        ]
      }
    },
    {
      "type": "Feature",
      "geometry": {
        "type": "Point",
        "coordinates": [
          3.0838978500310397,
          53.1621451302672
        ]
      },
      "properties": {
        "name": "The Lost Anvil",
        "type": "Taverns and Inns",
        "inkscape_coordinates": [
          604.71246401,
          310.70733945
        ]
      }
    },
    {
      "type": "Feature",
      "geometry": {
        "type": "Point",
        "coordinates": [
          2.047895953711041,
          52.5155820281872
        ]
      },
      "properties": {
        "name": "The Boiled Beastman",
        "type": "Taverns and Inns",
        "inkscape_coordinates": [
          545.52588401,
          347.64535945
        ]
      }
    },
    {
      "type": "Feature",
      "geometry": {
        "type": "Point",
        "coordinates": [
          2.8818934631510413,
          52.848186384667194
        ]
      },
      "properties": {
        "name": "The Count's Cross",
        "type": "Taverns and Inns",
        "inkscape_coordinates": [
          593.17199401,
          328.64373945
        ]
      }
    },
    {
      "type": "Feature",
      "geometry": {
        "type": "Point",
        "coordinates": [
          2.96436881035104,
          52.7038307216272
        ]
      },
      "properties": {
        "name": "The Copper Cauldron",
        "type": "Taverns and Inns",
        "inkscape_coordinates": [
          597.88379401,
          336.89074945
        ]
      }
    },
    {
      "type": "Feature",
      "geometry": {
        "type": "Point",
        "coordinates": [
          3.1278598143114005,
          52.90346211777399
        ]
      },
      "properties": {
        "name": "The Green Eye",
        "type": "Taverns and Inns",
        "inkscape_coordinates": [
          607.2240021887226,
          325.485847933387
        ]
      }
    },
    {
      "type": "Feature",
      "geometry": {
        "type": "Point",
        "coordinates": [
          0.4156318500310408,
          54.988400814747195
        ]
      },
      "properties": {
        "name": "The Jester's Stage",
        "type": "Taverns and Inns",
        "inkscape_coordinates": [
          452.27496401,
          206.37371945
        ]
      }
    },
    {
      "type": "Feature",
      "geometry": {
        "type": "Point",
        "coordinates": [
          -0.48701004596895897,
          54.3748803635472
        ]
      },
      "properties": {
        "name": "The Waning Mannslieb",
        "type": "Taverns and Inns",
        "inkscape_coordinates": [
          400.70721401000003,
          241.42401945
        ]
      }
    },
    {
      "type": "Feature",
      "geometry": {
        "type": "Point",
        "coordinates": [
          -2.4520967810089593,
          52.27768183842719
        ]
      },
      "properties": {
        "name": "The Victory of 2429 IC",
        "type": "Taverns and Inns",
        "inkscape_coordinates": [
          288.44220401,
          361.23654945
        ]
      }
    },
    {
      "type": "Feature",
      "geometry": {
        "type": "Point",
        "coordinates": [
          -1.299301895248959,
          54.3654150755472
        ]
      },
      "properties": {
        "name": "The Republican",
        "type": "Taverns and Inns",
        "inkscape_coordinates": [
          354.30114401000003,
          241.96476945
        ]
      }
    },
    {
      "type": "Feature",
      "geometry": {
        "type": "Point",
        "coordinates": [
          -1.2141935963689592,
          55.654357998747194
        ]
      },
      "properties": {
        "name": "The Long Way Home",
        "type": "Taverns and Inns",
        "inkscape_coordinates": [
          359.16336401,
          168.32771945
        ]
      }
    },
    {
      "type": "Feature",
      "geometry": {
        "type": "Point",
        "coordinates": [
          -1.3939542501289597,
          56.31181856610719
        ]
      },
      "properties": {
        "name": "The Promise Kept",
        "type": "Taverns and Inns",
        "inkscape_coordinates": [
          348.89367401,
          130.76712945
        ]
      }
    },
    {
      "type": "Feature",
      "geometry": {
        "type": "Point",
        "coordinates": [
          -1.8422638974889591,
          57.0217133806992
        ]
      },
      "properties": {
        "name": "The Wet Dog",
        "type": "Taverns and Inns",
        "inkscape_coordinates": [
          323.28183401,
          90.21098145
        ]
      }
    },
    {
      "type": "Feature",
      "geometry": {
        "type": "Point",
        "coordinates": [
          -1.5359332200489593,
          57.5328370072592
        ]
      },
      "properties": {
        "name": "The Lonliest Rock",
        "type": "Taverns and Inns",
        "inkscape_coordinates": [
          340.78244401,
          61.01059145
        ]
      }
    },
    {
      "type": "Feature",
      "geometry": {
        "type": "Point",
        "coordinates": [
          3.11839508331104,
          50.2781421552272
        ]
      },
      "properties": {
        "name": "The Dozen Swine",
        "type": "Taverns and Inns",
        "inkscape_coordinates": [
          606.68328401,
          475.46984945
        ]
      }
    },
    {
      "type": "Feature",
      "geometry": {
        "type": "Point",
        "coordinates": [
          4.043409541871041,
          50.27556084034719
        ]
      },
      "properties": {
        "name": "The Soldier's Pike",
        "type": "Taverns and Inns",
        "inkscape_coordinates": [
          659.52917401,
          475.61731945
        ]
      }
    },
    {
      "type": "Feature",
      "geometry": {
        "type": "Point",
        "coordinates": [
          5.33842985387104,
          50.831431517467195
        ]
      },
      "properties": {
        "name": "The Jealous Bride",
        "type": "Taverns and Inns",
        "inkscape_coordinates": [
          733.51342401,
          443.86053945
        ]
      }
    },
    {
      "type": "Feature",
      "geometry": {
        "type": "Point",
        "coordinates": [
          4.823863190511041,
          50.25921122914719
        ]
      },
      "properties": {
        "name": "The Blind and Faithful",
        "type": "Taverns and Inns",
        "inkscape_coordinates": [
          704.1163340100001,
          476.55136945
        ]
      }
    },
    {
      "type": "Feature",
      "geometry": {
        "type": "Point",
        "coordinates": [
          6.143837204911039,
          51.115389632347195
        ]
      },
      "properties": {
        "name": "The False Emperor",
        "type": "Taverns and Inns",
        "inkscape_coordinates": [
          779.52618401,
          427.63806945
        ]
      }
    },
    {
      "type": "Feature",
      "geometry": {
        "type": "Point",
        "coordinates": [
          0.6419375652310402,
          49.075192883227196
        ]
      },
      "properties": {
        "name": "The Dairymaid's Debt",
        "type": "Taverns and Inns",
        "inkscape_coordinates": [
          465.20376401,
          544.19409945
        ]
      }
    },
    {
      "type": "Feature",
      "geometry": {
        "type": "Point",
        "coordinates": [
          1.1490268698710406,
          48.863444019547195
        ]
      },
      "properties": {
        "name": "The Fallen Branch",
        "type": "Taverns and Inns",
        "inkscape_coordinates": [
          494.17367401,
          556.29126945
        ]
      }
    },
    {
      "type": "Feature",
      "geometry": {
        "type": "Point",
        "coordinates": [
          1.301924659951041,
          47.355096858267196
        ]
      },
      "properties": {
        "name": "The Stonecarver's Son",
        "type": "Taverns and Inns",
        "inkscape_coordinates": [
          502.90869401000003,
          642.46283945
        ]
      }
    },
    {
      "type": "Feature",
      "geometry": {
        "type": "Point",
        "coordinates": [
          1.5635102122710405,
          46.70113394018719
        ]
      },
      "properties": {
        "name": "The Half-Empty",
        "type": "Taverns and Inns",
        "inkscape_coordinates": [
          517.85302401,
          679.82360945
        ]
      }
    },
    {
      "type": "Feature",
      "geometry": {
        "type": "Point",
        "coordinates": [
          5.026679412911039,
          55.82411441634719
        ]
      },
      "properties": {
        "name": "The Bushel of Rye",
        "type": "Taverns and Inns",
        "inkscape_coordinates": [
          715.70318401,
          158.62956945
        ]
      }
    },
    {
      "type": "Feature",
      "geometry": {
        "type": "Point",
        "coordinates": [
          5.121597828591041,
          55.342221594587194
        ]
      },
      "properties": {
        "name": "The  Standardbearer",
        "type": "Taverns and Inns",
        "inkscape_coordinates": [
          721.12585401,
          186.16000945
        ]
      }
    },
    {
      "type": "Feature",
      "geometry": {
        "type": "Point",
        "coordinates": [
          4.064111172591041,
          55.137784326747195
        ]
      },
      "properties": {
        "name": "The One-Eyed Ogre",
        "type": "Taverns and Inns",
        "inkscape_coordinates": [
          660.71185401,
          197.83946945
        ]
      }
    },
    {
      "type": "Feature",
      "geometry": {
        "type": "Point",
        "coordinates": [
          3.5238076778710403,
          54.0462242093072
        ]
      },
      "properties": {
        "name": "The Ivory Antlers",
        "type": "Taverns and Inns",
        "inkscape_coordinates": [
          629.84442401,
          260.20007945
        ]
      }
    },
    {
      "type": "Feature",
      "geometry": {
        "type": "Point",
        "coordinates": [
          1.9418376423510413,
          47.672098324187196
        ]
      },
      "properties": {
        "name": "The Count Arnold",
        "type": "Taverns and Inns",
        "inkscape_coordinates": [
          539.4667940100001,
          624.35260945
        ]
      }
    },
    {
      "type": "Feature",
      "geometry": {
        "type": "Point",
        "coordinates": [
          7.52680163883104,
          52.424703010587194
        ]
      },
      "properties": {
        "name": "The Crusty Juggler",
        "type": "Taverns and Inns",
        "inkscape_coordinates": [
          858.53466401,
          352.83725945
        ]
      }
    },
    {
      "type": "Feature",
      "geometry": {
        "type": "Point",
        "coordinates": [
          12.940183200431038,
          59.979827819131195
        ]
      },
      "properties": {
        "name": "Ogrund's Tavern and Coaching Inn",
        "type": "Taverns and Inns",
        "inkscape_coordinates": [
          1167.80006401,
          -78.78550154999999
        ]
      }
    },
    {
      "type": "Feature",
      "geometry": {
        "type": "Point",
        "coordinates": [
          9.03515002539104,
          59.20344558338719
        ]
      },
      "properties": {
        "name": "Pervaya Stantsiya",
        "type": "Taverns and Inns",
        "inkscape_coordinates": [
          944.70630401,
          -34.43094055
        ]
      }
    },
    {
      "type": "Feature",
      "geometry": {
        "type": "Point",
        "coordinates": [
          9.787193806831041,
          59.415186727803196
        ]
      },
      "properties": {
        "name": "Vtoraya Stantsiya",
        "type": "Taverns and Inns",
        "inkscape_coordinates": [
          987.6704140100001,
          -46.52766955
        ]
      }
    },
    {
      "type": "Feature",
      "geometry": {
        "type": "Point",
        "coordinates": [
          10.455273350831035,
          59.654917555899196
        ]
      },
      "properties": {
        "name": "Tretya Stantsiya",
        "type": "Taverns and Inns",
        "inkscape_coordinates": [
          1025.8376640099998,
          -60.22344355
        ]
      }
    },
    {
      "type": "Feature",
      "geometry": {
        "type": "Point",
        "coordinates": [
          11.20853348523104,
          59.872741882939195
        ]
      },
      "properties": {
        "name": "Chetvyortaya Stantsiya",
        "type": "Taverns and Inns",
        "inkscape_coordinates": [
          1068.87126401,
          -72.66770355
        ]
      }
    },
    {
      "type": "Feature",
      "geometry": {
        "type": "Point",
        "coordinates": [
          12.188137843631036,
          59.99078129721119
        ]
      },
      "properties": {
        "name": "Pyataya Stantsiya",
        "type": "Taverns and Inns",
        "inkscape_coordinates": [
          1124.8358640099998,
          -79.41127155
        ]
      }
    },
    {
      "type": "Feature",
      "geometry": {
        "type": "Point",
        "coordinates": [
          6.384740555951041,
          60.2159069277392
        ]
      },
      "properties": {
        "name": "Volchya Stantsiya",
        "type": "Taverns and Inns",
        "inkscape_coordinates": [
          793.28894401,
          -92.27265355
        ]
      }
    },
    {
      "type": "Feature",
      "geometry": {
        "type": "Point",
        "coordinates": [
          7.18059352363104,
          60.96551777570719
        ]
      },
      "properties": {
        "name": "Medvezhya Stantsiya",
        "type": "Taverns and Inns",
        "inkscape_coordinates": [
          838.75586401,
          -135.09777055
        ]
      }
    },
    {
      "type": "Feature",
      "geometry": {
        "type": "Point",
        "coordinates": [
          3.666520065391041,
          58.4113847347792
        ]
      },
      "properties": {
        "name": "Zapadnaya Stantsiya",
        "type": "Taverns and Inns",
        "inkscape_coordinates": [
          637.99755401,
          10.819336450000002
        ]
      }
    },
    {
      "type": "Feature",
      "geometry": {
        "type": "Point",
        "coordinates": [
          -2.515795062288959,
          50.045330028187195
        ]
      },
      "properties": {
        "name": "The Skull's Reach",
        "type": "Taverns and Inns",
        "inkscape_coordinates": [
          284.80313401,
          488.77035945
        ]
      }
    },
    {
      "type": "Feature",
      "geometry": {
        "type": "Point",
        "coordinates": [
          -1.8956136389289595,
          52.0171689312272
        ]
      },
      "properties": {
        "name": "The Northland Piper",
        "type": "Taverns and Inns",
        "inkscape_coordinates": [
          320.23397401,
          376.11959945
        ]
      }
    },
    {
      "type": "Feature",
      "geometry": {
        "type": "Point",
        "coordinates": [
          0.38809648267104013,
          53.153862062427194
        ]
      },
      "properties": {
        "name": "The Second Thought",
        "type": "Taverns and Inns",
        "inkscape_coordinates": [
          450.70187401,
          311.18054945
        ]
      }
    },
    {
      "type": "Feature",
      "geometry": {
        "type": "Point",
        "coordinates": [
          1.5833016349910403,
          52.53775802082719
        ]
      },
      "properties": {
        "name": "The Bitter Moon",
        "type": "Taverns and Inns",
        "inkscape_coordinates": [
          518.98370401,
          346.37844945
        ]
      }
    },
    {
      "type": "Feature",
      "geometry": {
        "type": "Point",
        "coordinates": [
          1.8171046634710404,
          48.31827318754719
        ]
      },
      "properties": {
        "name": "The Friendly Hearth",
        "type": "Taverns and Inns",
        "inkscape_coordinates": [
          532.34082401,
          587.43676945
        ]
      }
    },
    {
      "type": "Feature",
      "geometry": {
        "type": "Point",
        "coordinates": [
          -2.407364608848959,
          51.95802344034719
        ]
      },
      "properties": {
        "name": "The Prince's Head",
        "type": "Taverns and Inns",
        "inkscape_coordinates": [
          290.99774401,
          379.49856945
        ]
      }
    },
    {
      "type": "Feature",
      "geometry": {
        "type": "Point",
        "coordinates": [
          0.9993480653910402,
          57.640945562139194
        ]
      },
      "properties": {
        "name": "The Grey Lady",
        "type": "Taverns and Inns",
        "inkscape_coordinates": [
          485.62255401,
          54.83437145
        ]
      }
    },
    {
      "type": "Feature",
      "geometry": {
        "type": "Point",
        "coordinates": [
          0.21505596459104054,
          57.31785846303519
        ]
      },
      "properties": {
        "name": "The Three Sheets",
        "type": "Taverns and Inns",
        "inkscape_coordinates": [
          440.81610401,
          73.29227245
        ]
      }
    },
    {
      "type": "Feature",
      "geometry": {
        "type": "Point",
        "coordinates": [
          2.6123497172310404,
          57.358624911451194
        ]
      },
      "properties": {
        "name": "The Wolf Prow",
        "type": "Taverns and Inns",
        "inkscape_coordinates": [
          577.77301401,
          70.96329345
        ]
      }
    },
    {
      "type": "Feature",
      "geometry": {
        "type": "Point",
        "coordinates": [
          1.7797600545110395,
          56.60720696802719
        ]
      },
      "properties": {
        "name": "The Brombeerstrauch",
        "type": "Taverns and Inns",
        "inkscape_coordinates": [
          530.20733401,
          113.89164945
        ]
      }
    },
    {
      "type": "Feature",
      "geometry": {
        "type": "Point",
        "coordinates": [
          3.735357696111041,
          55.876416543387194
        ]
      },
      "properties": {
        "name": "The Dangling Mutant",
        "type": "Taverns and Inns",
        "inkscape_coordinates": [
          641.93023401,
          155.64155945
        ]
      }
    },
    {
      "type": "Feature",
      "geometry": {
        "type": "Point",
        "coordinates": [
          1.0670143284310405,
          55.74390181122719
        ]
      },
      "properties": {
        "name": "The Fox and Crown",
        "type": "Taverns and Inns",
        "inkscape_coordinates": [
          489.48831401,
          163.21209945
        ]
      }
    },
    {
      "type": "Feature",
      "geometry": {
        "type": "Point",
        "coordinates": [
          1.0945496957910401,
          56.19995365282719
        ]
      },
      "properties": {
        "name": "Ulric's Vision",
        "type": "Taverns and Inns",
        "inkscape_coordinates": [
          491.06140401,
          137.15794945
        ]
      }
    },
    {
      "type": "Feature",
      "geometry": {
        "type": "Point",
        "coordinates": [
          1.1649651370710405,
          57.051353936635195
        ]
      },
      "properties": {
        "name": "The Hunter's Lodge",
        "type": "Taverns and Inns",
        "inkscape_coordinates": [
          495.08422401,
          88.51762245
        ]
      }
    },
    {
      "type": "Feature",
      "geometry": {
        "type": "Point",
        "coordinates": [
          3.59803829099104,
          56.1356406310672
        ]
      },
      "properties": {
        "name": "The Fist of Amber",
        "type": "Taverns and Inns",
        "inkscape_coordinates": [
          634.08520401,
          140.83213945
        ]
      }
    },
    {
      "type": "Feature",
      "geometry": {
        "type": "Point",
        "coordinates": [
          3.27190883915104,
          56.7781652102672
        ]
      },
      "properties": {
        "name": "The Hemp Merchant",
        "type": "Taverns and Inns",
        "inkscape_coordinates": [
          615.45349401,
          104.12483945
        ]
      }
    },
    {
      "type": "Feature",
      "geometry": {
        "type": "Point",
        "coordinates": [
          2.99080527659104,
          56.8499604918672
        ]
      },
      "properties": {
        "name": "The Pewter Merchant",
        "type": "Taverns and Inns",
        "inkscape_coordinates": [
          599.39410401,
          100.02318945
        ]
      }
    },
    {
      "type": "Feature",
      "geometry": {
        "type": "Point",
        "coordinates": [
          2.7887998394710403,
          56.79033294082719
        ]
      },
      "properties": {
        "name": "The Royal Wolf",
        "type": "Taverns and Inns",
        "inkscape_coordinates": [
          587.85357401,
          103.42969945
        ]
      }
    },
    {
      "type": "Feature",
      "geometry": {
        "type": "Point",
        "coordinates": [
          2.1426251511510395,
          56.76112681666719
        ]
      },
      "properties": {
        "name": "The Winter Wolf",
        "type": "Taverns and Inns",
        "inkscape_coordinates": [
          550.93774401,
          105.09823945
        ]
      }
    },
    {
      "type": "Feature",
      "geometry": {
        "type": "Point",
        "coordinates": [
          1.8663891009110403,
          56.842659048347194
        ]
      },
      "properties": {
        "name": "The Forest Inn",
        "type": "Taverns and Inns",
        "inkscape_coordinates": [
          535.15643401,
          100.44031945
        ]
      }
    },
    {
      "type": "Feature",
      "geometry": {
        "type": "Point",
        "coordinates": [
          1.412071905711041,
          56.988933447355194
        ]
      },
      "properties": {
        "name": "All Shadows Fled",
        "type": "Taverns and Inns",
        "inkscape_coordinates": [
          509.20138401,
          92.08369245
        ]
      }
    },
    {
      "type": "Feature",
      "geometry": {
        "type": "Point",
        "coordinates": [
          4.11765520843104,
          55.59655278914719
        ]
      },
      "properties": {
        "name": "The Hanging Highwayman",
        "type": "Taverns and Inns",
        "inkscape_coordinates": [
          663.77081401,
          171.63011945
        ]
      }
    },
    {
      "type": "Feature",
      "geometry": {
        "type": "Point",
        "coordinates": [
          4.1164383303510395,
          55.23270169218719
        ]
      },